City_ID,City,Lat,Lng,Max Temp,Humidity,Cloudiness,Wind Speed,Country,Date
0,port-aux-francais,-49.35,70.2167,5.06,90,100,16.77,TF,1700121507
1,puerto natales,-51.7236,-72.4875,0.93,94,98,1.94,CL,1700121507
2,grytviken,-54.2811,-36.5092,1.68,89,30,2.91,GS,1700121508
3,blackwell,36.8045,-97.2828,11.08,87,40,0.0,US,1700121508
4,ushuaia,-54.8,-68.3,3.81,48,20,4.63,AR,1700121508
5,edinburgh of the seven seas,-37.0676,-12.3116,13.38,74,44,9.44,SH,1700121509
6,petropavlovsk-kamchatsky,53.0452,158.6483,-4.67,63,0,6.26,RU,1700121418
7,yeed,4.55,43.0333,28.62,62,91,1.55,SO,1700121509
8,merke,42.8728,73.1786,20.37,14,12,1.72,KZ,1700121511
9,yellowknife,62.456,-114.3525,-14.69,96,100,2.06,CA,1700121292
10,youssoufia,32.2463,-8.5294,18.99,38,3,1.96,MA,1700121511
11,hailar,49.2,119.7,-8.99,95,100,3.74,CN,1700121511
12,bac lieu,9.285,105.7244,28.77,82,99,9.43,VN,1700121480
13,hadibu,12.65,54.0333,28.93,72,92,6.32,YE,1700121512
14,labrador city,52.9463,-66.9114,-4.05,93,100,2.57,CA,1700121512
15,ha tien,10.3833,104.4833,29.36,75,100,4.38,VN,1700121512
16,callao,-12.0667,-77.15,20.95,82,75,3.6,PE,1700121513
17,blackmans bay,-43.0167,147.3167,12.63,62,62,1.34,AU,1700121513
18,susuman,62.7833,148.1667,-32.01,98,70,0.53,RU,1700121514
19,jamestown,42.097,-79.2353,9.84,46,0,3.09,US,1700121426
20,aasiaat,68.7098,-52.8699,-15.05,99,92,2.57,GL,1700121514
21,qaqortoq,60.7167,-46.0333,-4.54,82,97,2.62,GL,1700121515
22,hawaiian paradise park,19.5933,-154.9731,21.13,96,100,2.57,US,1700121515
23,villa bruzual,9.3328,-69.1208,23.88,79,97,1.17,VE,1700121515
24,barah,13.7,30.3667,30.05,18,13,7.93,SD,1700121515
25,acarau,-2.8856,-40.12,27.18,68,84,8.31,BR,1700121516
26,waitangi,-43.9535,-176.5597,13.23,88,3,4.02,NZ,1700121516
27,touros,-5.1989,-35.4608,26.3,70,47,6.2,BR,1700121517
28,buka,40.8108,69.1986,23.9,9,4,1.18,UZ,1700121517
29,margaret river,-33.95,115.0667,22.07,48,0,6.78,AU,1700121336
30,khovd,48.0056,91.6419,-3.95,73,4,1.34,MN,1700121518
31,arraial do cabo,-22.9661,-42.0278,22.86,93,84,7.19,BR,1700121518
32,hasaki,35.7333,140.8333,15.22,52,100,3.74,JP,1700121518
33,albany,42.6001,-73.9662,4.57,83,0,1.13,US,1700121519
34,huarmey,-10.0681,-78.1522,19.24,91,100,4.14,PE,1700121519
35,xaloztoc,19.4036,-98.0486,8.04,85,39,2.15,MX,1700121519
36,badger,64.8,-147.5333,-7.07,90,75,2.06,US,1700121519
37,ribeirao pires,-23.7106,-46.4133,26.91,66,75,3.04,BR,1700121520
38,akrehamn,59.2667,5.1833,3.56,87,75,6.69,NO,1700121520
39,vishnyeva,54.7122,26.5225,-0.5,77,31,2.89,BY,1700121521
40,lihue,21.9789,-159.3672,23.77,71,20,8.75,US,1700121521
41,tual,-5.6667,132.75,28.27,72,26,3.2,ID,1700121522
42,invercargill,-46.4,168.35,15.57,62,81,4.02,NZ,1700121522
43,uliastay,47.7417,96.8444,-2.78,74,0,2.11,MN,1700121522
44,kapuskasing,49.4169,-82.4331,0.05,80,40,4.12,CA,1700121522
45,iskateley,67.6803,53.1512,-13.88,88,99,0.89,RU,1700121523
46,pasuquin,18.3328,120.6177,31.97,66,20,4.12,PH,1700121523
47,longyearbyen,78.2186,15.6401,-11.09,57,75,5.14,SJ,1700121523
48,belomorsk,64.5232,34.7668,-8.4,92,59,3.51,RU,1700121523
49,saldanha,-33.0117,17.9442,20.95,66,79,2.74,ZA,1700121449
50,adamstown,-25.066,-130.1015,20.98,92,100,7.07,PN,1700121524
51,rio grande,-32.035,-52.0986,19.97,95,73,2.94,BR,1700121524
52,kashgar,39.4547,75.9797,9.56,29,83,2.0,CN,1700121525
53,sergeyevka,53.88,67.4158,2.77,86,100,4.04,KZ,1700121525
54,haiku-pauwela,20.9219,-156.3051,23.36,69,40,6.17,US,1700121525
55,sarakhs,36.5449,61.1577,28.29,13,100,7.29,IR,1700121525
56,stanley,54.868,-1.6985,5.85,96,40,0.51,GB,1700121526
57,atafu village,-8.5421,-172.5159,28.91,77,100,3.36,TK,1700121526
58,ocean city,39.2776,-74.5746,10.55,85,100,2.24,US,1700121526
59,wittenburg,53.5167,11.0667,5.15,81,100,8.21,DE,1700121527
60,bethel,41.3712,-73.414,8.05,85,0,0.0,US,1700121335
61,hakkari,37.5833,44.1667,9.39,63,17,2.72,TR,1700121527
62,ingeniero jacobacci,-41.3427,-69.5448,4.87,72,98,10.54,AR,1700121227
63,tsiombe,-25.3,45.4833,25.19,49,70,8.31,MG,1700121528
64,port mathurin,-19.6833,63.4167,25.77,79,86,8.06,MU,1700121528
65,salekhard,66.53,66.6019,-17.91,94,10,2.44,RU,1700121528
66,isafjordur,66.0755,-23.124,-2.98,86,0,0.0,IS,1700121528
67,ciudad lazaro cardenas,17.9583,-102.2,25.65,92,53,1.58,MX,1700121529
68,tondano,1.3038,124.9112,29.05,73,63,0.69,ID,1700121486
69,ilulissat,69.2167,-51.1,-15.91,86,78,2.12,GL,1700121529
70,bredasdorp,-34.5322,20.0403,25.74,42,61,1.92,ZA,1700121530
71,bilibino,68.0546,166.4372,-27.39,100,100,1.42,RU,1700121530
72,nuku'alofa,-21.1333,-175.2,25.19,100,100,4.12,TO,1700121530
73,knin,44.0439,16.2,13.4,65,7,1.25,HR,1700121530
74,luderitz,-26.6481,15.1594,23.13,55,20,1.52,NA,1700121531
75,portland,45.5234,-122.6762,8.75,90,100,3.6,US,1700121359
76,hithadhoo,-0.6,73.0833,28.11,72,89,4.04,MV,1700121531
77,pisco,-13.7,-76.2167,19.03,82,99,3.6,PE,1700121422
78,upata,8.0086,-62.3989,22.88,99,36,0.86,VE,1700121532
79,sola,-13.8833,167.55,25.96,77,97,5.47,VU,1700121532
80,basco,20.4487,121.9702,26.23,70,62,5.66,PH,1700121532
81,tofol,5.3248,163.0078,28.21,75,100,4.9,FM,1700121532
82,selfoss,63.9331,-20.9971,3.36,87,90,4.18,IS,1700121533
83,chonchi,-42.6128,-73.8092,9.56,99,100,2.39,CL,1700121533
84,castillos,-34.1667,-53.8333,16.03,97,88,2.64,UY,1700121533
85,thompson,55.7435,-97.8558,-1.91,80,75,5.14,CA,1700121534
86,las varas,21.1667,-105.1667,25.04,82,31,1.13,MX,1700121534
87,gadzhiyevo,69.2551,33.3362,-5.6,84,100,9.02,RU,1700121535
88,tiksi,71.6872,128.8694,-13.2,83,100,9.23,RU,1700121535
89,bayanhongor,46.7167,100.1167,-7.3,75,3,0.57,MN,1700121535
90,ancud,-41.8697,-73.8203,9.81,96,100,7.4,CL,1700121535
91,lorengau,-2.0226,147.2712,27.98,78,7,2.79,PG,1700121536
92,yuzhno-kurilsk,44.0306,145.8556,6.32,65,6,3.45,RU,1700121536
93,mount isa,-20.7333,139.5,40.87,14,33,4.63,AU,1700121536
94,utrik,11.2278,169.8474,28.24,83,14,9.01,MH,1700121536
95,vadso,70.0744,29.7487,-7.91,67,20,5.66,NO,1700121537
96,chibougamau,49.9168,-74.3659,-2.21,93,40,2.06,CA,1700121537
97,taiynsha,53.8478,69.7639,4.07,89,100,5.36,KZ,1700121537
98,tolanaro,-25.0319,46.9987,23.04,73,75,6.17,MG,1700121538
99,keflavik,64.0049,-22.5624,3.24,93,75,3.09,IS,1700121538
100,avarua,-21.2078,-159.775,22.03,73,40,4.12,CK,1700121538
101,mar del plata,-38.0023,-57.5575,12.15,64,0,3.6,AR,1700121243
102,hilo,19.7297,-155.09,21.27,96,100,2.57,US,1700121539
103,olyokminsk,60.3736,120.4264,-16.67,97,64,2.0,RU,1700121539
104,iqaluit,63.7506,-68.5145,-3.15,86,100,11.83,CA,1700121539
105,huicungo,-7.2833,-76.8,20.8,99,93,0.51,PE,1700121540
106,kodiak,57.79,-152.4072,3.73,81,0,3.6,US,1700121504
107,sisimiut,66.9395,-53.6735,-8.74,80,81,3.12,GL,1700121540
108,kerikeri,-35.2268,173.9474,17.73,78,100,1.79,NZ,1700121540
109,tchintabaraden,15.8969,5.7985,26.91,14,2,6.32,NE,1700121541
110,taksimo,56.3444,114.8794,-15.29,83,64,0.4,RU,1700121541
111,tabuk,17.4189,121.4443,27.8,74,35,1.9,PH,1700121541
112,nemuro,43.3236,145.575,6.61,60,3,3.52,JP,1700121542
113,georgetown,5.4112,100.3354,30.96,79,20,3.09,MY,1700121491
114,oamaru,-45.0784,170.9801,13.54,82,100,1.54,NZ,1700121542
115,novyy rogachik,48.6768,44.0608,8.5,83,100,2.09,RU,1700121543
116,al ghayzah,16.2079,52.176,28.48,64,67,5.81,YE,1700121543
117,puerto ayora,-0.7393,-90.3518,23.08,97,85,1.34,EC,1700121543
118,kavaratti,10.5669,72.642,28.71,68,58,3.32,IN,1700121544
119,dudinka,69.4058,86.1778,-4.1,95,100,5.36,RU,1700121544
120,forster,-32.1667,152.5167,21.32,89,100,2.81,AU,1700121544
121,kruisfontein,-34.0033,24.7314,25.32,36,100,9.82,ZA,1700121544
122,saint-denis,48.9167,2.3333,9.77,98,75,6.17,FR,1700121545
123,bima,-8.4667,118.7167,31.73,59,91,2.15,ID,1700121545
124,brisas de zicatela,15.8369,-97.0419,26.13,73,57,2.01,MX,1700121545
125,alofi,-19.0595,-169.9187,24.94,94,63,5.14,NU,1700121546
126,san antonio de pale,-1.4014,5.6325,26.7,82,9,4.02,GQ,1700121546
127,san patricio,28.017,-97.5169,16.92,64,3,2.79,US,1700121546
128,nakamura,32.9833,132.9333,13.43,93,100,1.17,JP,1700121547
129,mount gambier,-37.8333,140.7667,12.98,60,34,4.77,AU,1700121391
130,al artawiyah,26.5053,45.3444,23.09,53,0,3.17,SA,1700121547
131,hubli,15.35,75.1667,29.02,51,20,2.57,IN,1700121547
132,flying fish cove,-10.4217,105.6791,27.82,78,75,3.6,CX,1700121548
133,nar'yan-mar,67.6713,53.087,-13.83,88,99,0.89,RU,1700121548
134,dalhart,36.0595,-102.5133,6.01,87,0,4.63,US,1700121548
135,portrush,55.1959,-6.6493,4.71,92,100,1.34,GB,1700121549
136,vilyuysk,63.7553,121.6247,-12.78,85,100,5.81,RU,1700121549
137,wajir,1.7471,40.0573,27.98,78,75,4.12,KE,1700121550
138,heihe,50.2441,127.4902,-4.75,97,100,3.17,CN,1700121550
139,mahibadhoo,3.7833,72.9667,28.29,71,76,0.29,MV,1700121550
140,west island,-12.1568,96.8225,28.99,58,40,6.17,CC,1700121551
141,college,64.8569,-147.8028,-7.03,86,75,2.06,US,1700121551
142,vorgashor,67.5833,63.95,-14.6,96,100,5.33,RU,1700121551
143,manicore,-5.8092,-61.3003,24.96,55,48,1.21,BR,1700121551
144,aral,40.5156,81.2636,9.72,22,2,1.55,CN,1700121552
145,bertoua,4.5833,13.6833,24.81,79,93,1.48,CM,1700121552
146,crane,31.3974,-102.3501,13.43,89,78,4.44,US,1700121552
147,papatowai,-46.5619,169.4708,14.04,55,98,3.02,NZ,1700121553
148,margate,51.3813,1.3862,10.5,81,100,0.89,GB,1700121553
149,la passe,45.5549,-0.8967,15.57,82,96,13.68,FR,1700121553
150,udachny,66.4167,112.4,-11.97,84,100,8.06,RU,1700121554
151,tura,25.5198,90.2201,26.35,63,100,1.61,IN,1700121554
152,woolgoolga,-30.1106,153.2007,23.36,91,99,2.79,AU,1700121554
153,enewetak,11.3474,162.3373,28.53,83,99,8.43,MH,1700121554
154,whitehorse,60.7161,-135.0538,-1.57,80,100,8.23,CA,1700121555
155,fale old settlement,-9.3852,-171.2468,29.15,73,100,2.42,TK,1700121555
156,daru,-9.0763,143.2092,26.85,74,3,4.9,PG,1700121555
157,urangan,-25.3,152.9,23.82,87,65,10.07,AU,1700121556
158,saipan,15.1355,145.701,28.39,78,75,5.14,MP,1700121556
159,vredendal,-31.6683,18.5012,25.11,43,73,3.37,ZA,1700121422
160,zhangye,38.9342,100.4517,9.76,16,0,0.84,CN,1700121557
161,hermanus,-34.4187,19.2345,20.61,74,100,0.17,ZA,1700121557
162,carutapera,-1.195,-46.02,26.78,75,74,4.14,BR,1700121558
163,punta arenas,-53.15,-70.9167,3.06,87,100,7.72,CL,1700121558
164,labasa,-16.4167,179.3833,25.88,90,72,1.19,FJ,1700121559
165,anna regina,7.2644,-58.5077,26.3,88,15,3.53,GY,1700121559
166,labytnangi,66.6572,66.4183,-17.17,91,8,2.59,RU,1700121559
167,saint-philippe,-21.3585,55.7679,28.95,75,100,2.99,RE,1700121560
168,urengoy,65.9667,78.3667,-11.15,95,47,4.06,RU,1700121560
169,nantucket,41.2835,-70.0995,11.12,82,20,9.26,US,1700121561
170,ust-nera,64.5667,143.2,-23.91,99,91,3.15,RU,1700121561
171,tshikapa,-6.4167,20.8,21.88,99,100,1.19,CD,1700121561
172,kudat,6.8837,116.8477,26.96,83,40,5.14,MY,1700121349
173,antonio enes,-16.2325,39.9086,27.97,49,65,5.7,MZ,1700121562
174,lebu,-37.6167,-73.65,9.95,91,65,1.18,CL,1700121562
175,ribeira grande,38.5167,-28.7,21.22,94,75,8.49,PT,1700121562
176,minas novas,-17.2186,-42.5903,20.25,65,2,0.75,BR,1700121562
177,sorsk,54.0033,90.2467,-0.79,86,100,2.67,RU,1700121563
178,ballina,-28.8667,153.5667,24.31,80,75,1.37,AU,1700121563
179,antalaha,-14.9003,50.2788,28.73,59,100,4.49,MG,1700121563
180,caluula,11.9661,50.7569,28.88,75,80,7.63,SO,1700121564
181,klyuchi,52.2667,79.1667,8.93,40,100,7.88,RU,1700121564
182,qashyr,53.0675,76.1036,7.85,49,100,6.92,KZ,1700121565
183,katsuura,35.1333,140.3,16.36,61,100,4.03,JP,1700121565
184,flin flon,54.7682,-101.865,-7.5,87,78,4.68,CA,1700121565
185,altai,46.3722,96.2583,-1.94,54,0,1.16,MN,1700121565
186,vernon,50.2581,-119.2691,0.74,96,88,0.51,CA,1700121566
187,mata-utu,-13.2816,-176.1745,28.81,76,47,2.39,WF,1700121566
188,phibun mangsahan,15.2447,105.2291,30.99,61,86,9.41,TH,1700121566
189,ulladulla,-35.35,150.4667,18.2,89,100,4.12,AU,1700121567
190,port lincoln,-34.7333,135.8667,15.89,67,0,8.14,AU,1700121567
191,fortuna,40.5982,-124.1573,13.29,94,100,2.68,US,1700121567
192,lucas,41.6501,-83.6666,6.75,68,0,1.54,US,1700121568
193,wailua homesteads,22.0669,-159.378,23.44,77,20,8.75,US,1700121568
194,fortaleza,-3.7227,-38.5247,27.34,78,40,4.63,BR,1700121532
195,thunder bay,48.4001,-89.3168,0.99,75,100,1.54,CA,1700121568
196,akureyri,65.6835,-18.0878,-3.04,93,20,1.54,IS,1700121569
197,colonia,50.9333,6.95,8.81,86,0,2.06,DE,1700121346
198,fort bragg,35.139,-79.006,11.39,81,100,2.06,US,1700121569
199,noumea,-22.2763,166.4572,22.99,82,76,3.96,NC,1700120981
200,kingston,17.997,-76.7936,28.53,74,20,6.17,JM,1700121210
201,constantia,44.1833,28.65,10.39,62,56,5.11,RO,1700121570
202,hami,42.8,93.45,8.54,21,0,2.0,CN,1700121570
203,codrington,-38.2667,141.9667,12.97,59,81,6.35,AU,1700121571
204,morehead city,34.7229,-76.726,13.0,94,0,2.57,US,1700121486
205,mexico,15.0646,120.7198,33.84,58,8,4.31,PH,1700121378
206,conception bay south,47.4999,-52.9981,0.97,82,90,5.21,CA,1700121571
207,poso,-1.3959,120.7524,29.32,70,100,1.37,ID,1700121571
208,ituiutaba,-18.9689,-49.465,23.94,48,4,1.41,BR,1700121422
209,tineo,43.3376,-6.4145,13.37,95,97,1.73,ES,1700121572
210,sao jose da coroa grande,-8.8978,-35.1478,24.62,82,17,3.27,BR,1700121572
211,karratha,-20.7377,116.8463,30.33,38,0,9.34,AU,1700121573
212,campo gallo,-26.5833,-62.85,21.38,93,88,2.09,AR,1700121573
213,sorong,-0.8833,131.25,30.18,70,3,5.61,ID,1700121573
214,klaksvik,62.2266,-6.589,3.51,60,84,4.62,FO,1700121574
215,adrar,20.5022,-10.0711,20.3,21,81,4.71,MR,1700121574
216,santa terezinha,-29.9002,-50.0904,21.18,98,100,2.04,BR,1700121574
217,hirara,24.8,125.2833,25.15,61,75,5.66,JP,1700121574
218,palia kalan,28.45,80.5833,28.38,36,0,0.3,IN,1700121575
219,arenapolis,-14.4503,-56.8461,25.37,43,3,1.36,BR,1700121575
220,kapa'a,22.0752,-159.319,24.18,77,20,8.75,US,1700121575
221,novodvinsk,64.4165,40.8122,-5.68,84,6,3.23,RU,1700121576
222,vorkuta,67.5,64.0,-14.81,96,100,5.26,RU,1700121576
223,olonkinbyen,70.9221,-8.7187,-3.45,86,100,2.81,SJ,1700121576
224,amasra,41.7463,32.3863,12.03,90,100,6.45,TR,1700121577
225,umluj,25.0213,37.2685,28.72,34,0,0.81,SA,1700121577
226,sept-iles,50.2001,-66.3821,1.0,96,100,2.06,CA,1700121577
227,thanh hoa,19.8,105.7667,18.4,59,100,8.22,VN,1700121480
228,port alfred,-33.5906,26.891,23.43,64,100,2.68,ZA,1700121578
229,angra do heroismo,38.65,-27.2167,21.34,99,40,1.34,PT,1700121578
230,dazuocun,24.8862,118.9643,20.36,59,100,6.98,CN,1700121578
231,jordanow,49.6493,19.8298,5.45,97,100,1.7,PL,1700121578
232,swakopmund,-22.6833,14.5333,17.47,85,38,2.24,NA,1700121471
233,piti village,13.4626,144.6933,29.49,80,20,7.2,GU,1700121579
234,howard springs,-12.497,131.047,32.71,65,48,5.11,AU,1700121580
235,sao felix do xingu,-6.6447,-51.995,23.92,69,5,1.1,BR,1700121580
236,ola,59.5833,151.2833,-13.34,81,96,2.96,RU,1700121580
237,waukee,41.6117,-93.8852,11.66,81,5,4.97,US,1700121581
238,tyuratam,45.6507,63.3156,14.79,42,47,1.38,KZ,1700121581
239,xique xique,-10.8217,-42.7311,25.47,62,0,8.11,BR,1700121581
240,nyurba,63.2842,118.3319,-10.62,86,100,6.24,RU,1700121582
241,batticaloa,7.7102,81.6924,28.79,76,91,3.72,LK,1700121582
242,port elizabeth,-33.918,25.5701,22.16,80,0,15.43,ZA,1700121582
243,shalqar,47.8333,59.6,7.26,67,100,0.69,KZ,1700121583
244,tazovsky,67.4667,78.7,-12.32,95,91,5.79,RU,1700121583
245,at taj,24.2049,23.2857,19.95,38,100,2.77,LY,1700121583
246,awjilah,29.1081,21.2869,21.43,69,0,3.58,LY,1700121584
247,new norfolk,-42.7826,147.0587,13.29,59,59,3.23,AU,1700121584
248,sagua la grande,22.8067,-80.0756,22.77,92,100,3.67,CU,1700121584
249,alaghsas,17.0187,8.0168,24.94,22,1,3.09,NE,1700121585
250,aykhal,66.0,111.5,-10.96,92,100,10.13,RU,1700121585
251,east london,-33.0153,27.9116,20.52,77,0,2.57,ZA,1700121585
252,mejit,10.2753,170.8646,28.16,83,9,8.2,MH,1700121585
253,dabat,12.9842,37.765,18.71,53,11,0.19,ET,1700121586
254,sitka,57.0531,-135.33,4.25,93,100,4.37,US,1700121586
255,westport,41.1415,-73.3579,9.9,80,0,1.34,US,1700121581
256,cockburn town,21.4612,-71.1419,27.56,74,69,10.21,TC,1700121586
257,murzuq,25.9155,13.9184,19.22,51,0,2.36,LY,1700121587
258,sandnessjoen,66.0217,12.6316,-3.94,54,0,2.06,NO,1700121587
259,springbok,-29.6643,17.8865,27.32,10,0,3.6,ZA,1700121587
260,shorkot,31.9099,70.8774,27.29,18,0,1.53,PK,1700121587
261,bayindir,38.2174,27.6474,21.34,79,84,1.79,TR,1700121588
262,cornelio procopio,-23.1811,-50.6467,21.95,68,82,1.16,BR,1700121588
263,mirto,38.0847,14.7515,17.39,64,4,1.98,IT,1700121588
264,kwang binh,17.4833,106.6,21.8,90,100,11.55,VN,1700121588
265,hamilton,39.1834,-84.5333,12.62,64,0,1.79,US,1700121536
266,viradouro,-20.8731,-48.2969,22.86,62,2,2.0,BR,1700121589
267,plouzane,48.3833,-4.6167,13.18,100,100,8.75,FR,1700121589
268,dunedin,-45.8742,170.5036,13.78,81,95,0.45,NZ,1700121589
269,salahonda,2.1019,-78.7217,26.06,85,100,2.75,CO,1700121590
270,talnakh,69.4865,88.3972,-4.33,95,100,4.04,RU,1700121590
271,guerrero negro,27.9769,-114.0611,19.92,81,100,1.99,MX,1700121590
272,dongcun,36.7767,121.1597,8.53,39,42,9.3,CN,1700121590
273,mil'kovo,55.6078,37.7956,3.01,98,98,0.9,RU,1700121591
274,pimentel,-6.8367,-79.9342,19.16,88,75,5.66,PE,1700121591
275,ribeira brava,32.65,-17.0667,22.62,60,27,2.22,PT,1700121591
276,papao,-17.75,-149.55,25.82,82,100,9.36,PF,1700121591
277,isangel,-19.55,169.2667,23.54,88,7,4.74,VU,1700121592
278,san julian,21.0167,-102.1667,13.4,53,97,1.11,MX,1700121592
279,sungai raya,0.7,108.9,27.18,82,100,0.84,ID,1700121592
280,najran,17.4924,44.1277,26.36,25,83,1.89,SA,1700121593
281,santo antonio,-6.3106,-35.4789,22.5,85,53,2.13,BR,1700121593
282,puerto aysen,-45.4,-72.7,4.11,100,100,2.43,CL,1700121593
283,rawah,34.4816,41.9093,19.41,57,0,1.95,IQ,1700121594
284,salinopolis,-0.6136,-47.3561,27.07,77,79,5.34,BR,1700121594
285,gambela,8.25,34.5833,29.45,62,7,1.88,ET,1700121594
286,kailua-kona,19.6406,-155.9956,24.17,80,0,1.54,US,1700121521
287,dalandzadgad,43.5708,104.425,0.97,49,6,4.11,MN,1700121595
288,sao joao da ponte,-15.9292,-44.0078,21.7,54,0,0.78,BR,1700121595
289,talara,-4.5772,-81.2719,21.24,81,100,7.61,PE,1700121474
290,lompoc,34.6391,-120.4579,17.66,84,100,7.2,US,1700121465
291,pahrump,36.2083,-115.9839,12.19,88,100,0.89,US,1700121553
292,bazas,44.432,-0.2133,15.35,98,100,5.95,FR,1700121596
293,boumahra ahmed,36.4583,7.5139,13.72,48,4,1.33,DZ,1700121597
294,san antonio oeste,-40.7319,-64.9477,12.45,35,99,5.08,AR,1700121597
295,fort mcmurray,56.7268,-111.381,-9.23,85,100,2.57,CA,1700121321
296,island harbour,50.724,-1.2758,8.34,90,100,5.81,GB,1700121598
297,marsa alam,25.0757,34.8918,25.87,61,0,5.67,EG,1700121598
298,kununurra,-15.7667,128.7333,39.99,27,94,2.57,AU,1700121598
299,bansi,27.1833,82.9333,29.31,32,0,1.63,IN,1700121598
300,st. john's,47.5649,-52.7093,1.1,82,100,5.81,CA,1700121510
301,cabo san lucas,22.8909,-109.9124,25.28,77,100,4.09,MX,1700121182
302,gizo,-8.103,156.8419,27.05,72,27,3.07,SB,1700121599
303,aitape,-3.1374,142.3475,27.48,85,38,3.11,PG,1700121599
304,san luis de la loma,17.2706,-100.8939,25.08,79,32,2.25,MX,1700121600
305,coquimbo,-29.9533,-71.3436,11.85,82,0,1.03,CL,1700121600
306,yarmouth,41.7057,-70.2286,12.08,76,0,8.23,US,1700121382
307,walvis bay,-22.9575,14.5053,17.53,88,20,1.54,NA,1700121600
308,masterton,-40.9597,175.6575,14.38,68,100,2.35,NZ,1700121601
309,puerto santander,8.3636,-72.4063,23.37,97,97,0.38,CO,1700121607
310,harstad,68.799,16.5293,0.09,87,100,6.71,NO,1700121620
311,paita,-5.0892,-81.1144,19.69,90,99,5.85,PE,1700121621
312,pemangkat,1.1667,108.9667,28.78,69,100,0.3,ID,1700121622
313,suntar,62.1444,117.6319,-10.16,83,100,5.53,RU,1700121632
314,yaren,-0.5472,166.916,28.47,78,96,3.56,NR,1700121635
315,anadyr,64.75,177.4833,-20.72,84,0,5.0,RU,1700121636
316,maysville,38.6412,-83.7444,10.56,57,0,3.09,US,1700121638
317,cabedelo,-6.9811,-34.8339,25.37,77,78,2.83,BR,1700121641
318,kone,-21.0595,164.8658,21.73,69,15,1.08,NC,1700121642
319,smithers,54.7804,-127.1743,-2.82,93,100,2.06,CA,1700121643
320,san fernando de apure,7.8878,-67.4724,23.81,84,7,1.0,VE,1700121643
321,alto araguaia,-17.3147,-53.2153,22.33,50,32,1.35,BR,1700121644
322,kuala terengganu,5.3302,103.1408,30.97,74,40,3.09,MY,1700121645
323,popondetta,-8.7537,148.2534,25.41,83,98,1.29,PG,1700121645
324,tralee,52.2704,-9.7026,9.73,80,100,4.84,IE,1700121645
325,tapes,-30.6733,-51.3958,21.33,97,100,2.06,BR,1700121425
326,srivardhan,18.0333,73.0167,30.79,38,3,3.0,IN,1700121646
327,am timan,11.0297,20.2827,32.02,24,98,3.94,TD,1700121648
328,mahdia,35.5047,11.0622,19.97,68,50,6.69,TN,1700121651
329,arris,35.2588,6.3471,17.13,28,6,3.03,DZ,1700121651
330,porto velho,-8.7619,-63.9039,26.03,89,0,0.0,BR,1700121653
331,kayar,14.9192,-17.1211,25.53,40,96,4.8,SN,1700121654
332,kiama,-34.6833,150.8667,20.0,85,100,2.13,AU,1700121655
333,kapoeta,4.7717,33.5903,28.7,50,100,6.78,SS,1700121655
334,kaga bandoro,6.9896,19.1874,25.58,79,100,1.42,CF,1700121655
335,bikenibeu village,1.3673,173.1241,28.98,79,20,1.54,KI,1700121656
336,burang,30.25,81.1667,3.02,29,0,2.67,CN,1700121656
337,novyy urengoy,66.0833,76.6333,-13.38,95,49,4.64,RU,1700121656
338,montrose,38.4166,-108.2673,3.63,47,100,2.42,US,1700121656
339,coahuayana de hidalgo,18.7,-103.6583,24.73,94,5,1.04,MX,1700121657
340,abancay,-13.6339,-72.8814,14.58,87,91,0.87,PE,1700121657
341,tawau,4.2498,117.8871,25.07,69,100,2.39,MY,1700121657
342,ocean shores,46.9737,-124.1563,5.01,92,0,2.24,US,1700121431
343,calama,-22.4667,-68.9333,9.27,34,0,7.2,CL,1700121645
344,sijunjung,-0.6876,100.9537,27.77,88,100,0.87,ID,1700121658
345,broome,42.2506,-75.833,5.36,69,0,1.32,US,1700121658
346,rongelap,11.1635,166.8941,28.21,84,54,8.58,MH,1700121659
347,mozarlandia,-14.7447,-50.5706,26.54,48,6,1.46,BR,1700121659
348,mathba,22.2855,89.9629,23.9,80,100,3.13,BD,1700121659
349,beloyarskiy,63.7119,66.6722,-10.0,97,93,1.34,RU,1700121659
350,carnarvon,-24.8667,113.6333,22.16,82,0,8.55,AU,1700121660
351,kansanshi,-12.0951,26.4273,27.36,35,9,4.49,ZM,1700121660
352,muscatine,41.4667,-91.1335,9.49,52,3,3.42,US,1700121660
353,puerto lempira,15.2667,-83.7667,26.43,83,100,6.84,HN,1700121660
354,vilaka,57.1846,27.6722,-0.63,79,100,2.94,LV,1700121661
355,sullivan,36.5168,-82.5332,8.79,57,5,1.23,US,1700121661
356,ilanskiy,56.2358,96.065,3.46,68,88,5.1,RU,1700121662
357,al kharijah,25.4514,30.5464,23.62,39,0,4.31,EG,1700121662
358,sao vicente,-23.9631,-46.3919,27.1,61,92,3.37,BR,1700121663
359,panaba,21.2833,-88.2667,23.34,89,0,2.59,MX,1700121663
360,dashitou,43.3067,128.5114,-0.06,93,100,2.11,CN,1700121663
361,zaozersk,69.4005,32.4476,-5.67,82,97,6.56,RU,1700121664
362,severo-yeniseyskiy,60.3725,93.0408,-2.46,94,100,4.47,RU,1700121665
363,tariba,7.8188,-72.2243,19.82,85,78,2.94,VE,1700121665
364,las heras,-46.5419,-68.9359,5.26,65,100,6.19,AR,1700121665
365,hovd,48.0056,91.6419,-3.95,73,4,1.34,MN,1700121669
366,lata,40.1629,-8.3327,16.15,96,100,0.72,PT,1700121671
367,raja,8.4596,25.678,30.0,31,99,3.43,SS,1700121671
368,poteau,35.0537,-94.6236,10.6,93,100,0.0,US,1700121672
369,presque isle,46.6811,-68.0159,1.24,89,100,2.24,US,1700121429
370,chos malal,-37.3781,-70.2709,7.93,53,22,4.44,AR,1700121673
371,east grand forks,47.93,-97.0245,3.13,64,100,1.31,US,1700121673
372,agua prieta,31.3,-109.5667,16.87,44,0,2.06,MX,1700121679
373,kushtia,23.9011,89.1221,28.75,45,100,2.9,BD,1700121685
374,wladyslawowo,54.7909,18.4009,6.07,74,85,3.97,PL,1700121245
375,gamba,-2.65,10.0,26.86,80,100,0.91,GA,1700121686
376,ponta delgada,37.7333,-25.6667,20.4,94,75,4.12,PT,1700121687
377,harlingen,26.1906,-97.6961,16.22,85,0,1.34,US,1700121656
378,altpinar,39.2042,32.7478,14.27,51,4,5.45,TR,1700121687
379,masuguru,-11.3667,38.4167,30.55,39,13,2.89,TZ,1700121688
380,butembo,0.15,29.2833,22.35,60,87,1.0,CD,1700121689
381,vilyuchinsk,52.9306,158.4028,-3.85,80,3,4.56,RU,1700121689
382,la ronge,55.1001,-105.2842,-6.86,73,100,3.6,CA,1700121689
383,bahar,34.9072,48.4414,14.09,54,75,1.03,IR,1700121690
384,bandar lampung,-5.4254,105.258,32.21,53,97,3.75,ID,1700121642
385,dan khun thot,15.2085,101.7714,28.09,71,98,7.2,TH,1700121691
386,greymouth,-42.4667,171.2,11.69,91,100,1.95,NZ,1700121691
387,tazacorte,28.629,-17.9293,25.64,31,0,4.92,ES,1700121692
388,arteche,12.2645,125.4048,27.35,87,80,5.73,PH,1700121692
389,kuching,1.55,110.3333,30.02,91,40,5.14,MY,1700121693
390,deqen,29.9618,90.7188,9.56,18,78,0.66,CN,1700121693
391,dobryanka,58.4619,56.4165,1.08,86,99,3.52,RU,1700121693
392,cooper's town,26.8667,-77.5167,23.7,77,100,12.75,BS,1700121694
393,tadine,-21.55,167.8833,22.83,85,16,4.48,NC,1700121695
394,timmins,48.4669,-81.3331,-2.1,86,0,2.06,CA,1700121695
395,brokopondo,4.75,-55.1667,25.37,87,29,3.3,SR,1700121695
396,batangafo,7.3008,18.2833,24.52,84,100,2.99,CF,1700121697
397,gokwe,-18.2048,28.9349,26.66,36,4,2.77,ZW,1700121697
398,prince rupert,54.3161,-130.3201,6.83,79,100,15.43,CA,1700121697
399,nova sintra,14.8667,-24.7167,23.43,68,30,6.07,CV,1700121698
400,jurbarkas,55.0778,22.7664,1.48,74,93,1.74,LT,1700121698
401,simpang,-1.2667,104.0833,30.3,74,89,1.15,ID,1700121699
402,quellon,-43.1167,-73.6167,8.42,95,100,5.75,CL,1700121699
403,bandraboua,-12.7044,45.1223,32.82,74,26,2.28,YT,1700121699
404,la'ie,21.6477,-157.9253,24.14,68,100,4.47,US,1700121700
405,bhimbar,32.9757,74.0793,26.09,22,99,2.11,PK,1700121700
406,wanning,18.8003,110.3967,22.51,82,94,8.38,CN,1700121700
407,torbat-e jam,35.244,60.6225,23.02,15,93,7.58,IR,1700121701
408,shangqiu,34.45,115.65,12.62,23,0,4.6,CN,1700121701
409,san jose del guaviare,2.5729,-72.6459,21.96,98,82,0.57,CO,1700121701
410,xining,36.6167,101.7667,5.2,19,0,1.07,CN,1700121702
411,berezivka,47.2043,30.9078,9.75,72,100,7.1,UA,1700121702
412,tarawa,1.419,172.984,29.05,79,20,1.54,KI,1700121703
413,uturoa,-16.7333,-151.4333,26.16,69,99,6.88,PF,1700121703
414,iquique,-20.2208,-70.1431,17.02,72,16,2.72,CL,1700121703
415,geraldton,-28.7667,114.6,28.23,44,0,11.32,AU,1700121535
416,tahe,52.3333,124.7333,-7.72,94,100,2.37,CN,1700121704
417,ikere-ekiti,7.4913,5.2322,25.34,58,100,0.92,NG,1700121704
418,praia da vitoria,38.7333,-27.0667,21.14,94,40,9.66,PT,1700121705
419,kushiro,42.975,144.3747,6.53,70,20,2.06,JP,1700121705
420,carauari,-4.8828,-66.8958,24.25,73,87,0.82,BR,1700121473
421,port saint john's,-31.6229,29.5448,27.46,61,100,3.76,ZA,1700121705
422,okhotsk,59.3833,143.3,-16.32,82,6,3.75,RU,1700121706
423,myitkyina,25.3833,97.4,23.43,57,100,0.43,MM,1700121706
424,broken hill,-31.95,141.4333,21.08,44,34,5.78,AU,1700121706
425,tabou,4.423,-7.3528,26.63,82,0,1.64,CI,1700121707
426,nova xavantina,-14.6667,-52.35,24.84,50,6,1.02,BR,1700121707
427,neka,36.6508,53.299,20.73,73,5,2.06,IR,1700121707
428,aioun,16.6614,-9.6149,23.9,16,32,3.89,MR,1700121707
429,terrace,54.5163,-128.6035,2.34,100,100,3.09,CA,1700121708
430,griffith,41.5284,-87.4237,10.5,75,0,2.06,US,1700121708
431,itoman,26.1247,127.6694,26.43,56,75,7.2,JP,1700121708
432,priob'ye,62.5206,65.5964,-2.76,92,100,2.31,RU,1700121708
433,revda,56.801,59.9303,0.37,89,100,3.89,RU,1700121709
434,bamboo flat,11.7,92.7167,31.05,74,20,3.6,IN,1700121709
435,buala,-8.145,159.5921,26.4,79,99,0.58,SB,1700121709
436,lerwick,60.1545,-1.1494,4.0,61,53,3.06,GB,1700121709
437,saynshand,44.8824,110.1163,-4.48,68,0,4.41,MN,1700121710
438,mananara,-16.1667,49.7667,28.94,57,100,3.3,MG,1700121710
439,yenisehir,40.2644,29.6531,11.03,100,75,0.51,TR,1700121710
440,holualoa,19.6228,-155.9522,22.1,82,46,0.45,US,1700121711
441,lindisfarne,-42.8333,147.35,12.89,68,40,5.14,AU,1700121711
442,tocopilla,-22.092,-70.1979,18.1,72,55,3.8,CL,1700121711
443,ha'il,27.5219,41.6907,17.01,77,75,2.06,SA,1700121712
444,polyarnyy,69.1989,33.4478,-4.98,82,100,8.81,RU,1700121712
445,toliara,-23.35,43.6667,30.15,43,0,3.98,MG,1700121713
446,bakchar,57.0186,82.0711,3.86,70,100,4.48,RU,1700121714
447,sars,56.5502,57.1366,0.04,93,100,3.81,RU,1700121714
448,vom,9.7333,8.7833,22.82,34,94,6.74,NG,1700121714
449,puttur,12.7667,75.2167,33.06,44,61,1.39,IN,1700121716
450,afaahiti,-17.75,-149.2833,24.93,80,100,8.53,PF,1700121717
451,sukhobezvodnoye,57.0491,44.8891,0.28,83,97,2.11,RU,1700121718
452,butha-buthe,-28.8333,28.5,15.89,52,85,3.8,LS,1700121719
453,ankang,32.68,109.0172,14.28,29,0,4.03,CN,1700121720
454,launceston,-41.45,147.1667,16.0,38,68,8.23,AU,1700121721
455,dashiqiao,40.6373,122.5025,3.12,44,82,6.38,CN,1700121721
456,aizkraukle,56.6048,25.2553,-0.1,81,57,2.34,LV,1700121722
457,kharhial,20.2833,82.7667,28.71,42,96,3.77,IN,1700121723
458,tamandare,-8.7597,-35.1047,24.62,82,15,3.06,BR,1700121474
459,goalpara,26.1667,90.6167,28.59,46,100,4.78,IN,1700121724
460,port sudan,19.6175,37.2164,29.0,59,97,6.71,SD,1700121725
461,north bend,43.4065,-124.2243,11.07,100,100,0.0,US,1700121725
462,ghanzi,-21.5667,21.7833,27.03,44,88,6.36,BW,1700121726
463,freetown,8.484,-13.2299,27.02,80,49,1.63,SL,1700121726
464,charkhi dadri,28.6,76.2667,27.46,20,0,1.75,IN,1700121727
465,mogocha,53.7333,119.7667,-8.84,77,86,2.77,RU,1700121728
466,karbala,32.616,44.0249,20.57,70,64,1.23,IQ,1700121728
467,hastings,50.8552,0.5729,10.51,84,100,5.77,GB,1700121729
468,nakatsugawa,35.4833,137.5,12.28,77,100,0.63,JP,1700121729
469,namibe,-15.1961,12.1522,26.7,63,65,2.02,AO,1700121730
470,constitucion,-35.3333,-72.4167,10.12,70,0,3.7,CL,1700121656
471,helston,50.1032,-5.2705,8.35,93,75,11.83,GB,1700121731
472,thinadhoo,0.5333,72.9333,27.76,78,95,4.02,MV,1700121731
473,belyy yar,53.6039,91.3903,-4.06,93,40,2.0,RU,1700121732
474,bossangoa,6.4926,17.4552,24.8,84,88,1.67,CF,1700121732
475,fagaras,45.85,24.9667,6.8,92,99,3.74,RO,1700121732
476,kasimov,54.9411,41.3953,1.69,86,100,0.94,RU,1700121733
477,riverton,40.5219,-111.9391,15.99,44,40,5.66,US,1700121609
478,kota bharu,6.1333,102.2386,26.97,89,40,3.09,MY,1700121734
479,glace bay,46.1969,-59.957,1.55,89,100,2.57,CA,1700121610
480,murun-kuren,49.6342,100.1625,-2.73,62,24,0.94,MN,1700121735
481,sabang,5.8933,95.3214,27.98,74,47,1.29,ID,1700121735
482,lensk,60.7253,114.9278,-10.2,74,100,3.11,RU,1700121736
483,conde,-7.2597,-34.9075,24.7,88,20,2.57,BR,1700121736
484,novyy urgal,51.0736,132.5642,-7.71,96,100,1.36,RU,1700121737
485,nadi,-17.8,177.4167,26.0,83,40,2.57,FJ,1700121737
486,aplahoue,6.9333,1.6833,26.49,75,100,0.99,BJ,1700121737
487,grahamstown,-33.3042,26.5328,19.97,29,100,6.08,ZA,1700121738
488,box elder,41.5005,-112.8764,10.34,70,100,1.33,US,1700121738
489,caleta de carquin,-11.0925,-77.6267,18.75,92,100,3.72,PE,1700121739
490,bridgetown,13.1,-59.6167,27.27,89,40,9.26,BB,1700121524
491,ta`u,-14.2336,-169.5144,28.22,84,65,4.13,AS,1700121740
492,el triunfo,-1.9333,-79.9667,24.02,80,89,1.63,EC,1700121741
493,arvayheer,46.2639,102.775,-0.83,56,6,1.25,MN,1700121741
494,mili,6.0815,171.735,27.91,81,100,4.66,MH,1700121742
495,wagar,16.1525,36.2032,31.53,40,82,5.95,SD,1700121742
496,altamira,-3.2033,-52.2064,23.54,86,0,1.5,BR,1700121743
497,yantzaza,-3.8278,-78.7594,19.27,99,100,0.29,EC,1700121730
498,manado,1.487,124.8455,33.43,62,40,1.54,ID,1700121705
499,lazaro cardenas,17.9583,-102.2,25.65,92,53,1.58,MX,1700121744
500,almus,40.3758,36.9044,16.46,46,100,3.51,TR,1700121745
501,yarovoye,52.9273,78.58,8.27,45,100,7.99,RU,1700121745
502,weno,7.4515,151.8468,27.81,78,100,5.28,FM,1700121746
503,bubaque,11.2833,-15.8333,27.28,77,5,3.66,GW,1700121746
504,champerico,14.3,-91.9167,25.67,87,17,1.69,GT,1700121746
505,page,36.9147,-111.4558,12.05,60,100,3.58,US,1700121747
506,diego de almagro,-26.3667,-70.05,14.24,50,100,0.31,CL,1700121707
507,es castell,39.8795,4.2854,18.38,88,75,4.12,ES,1700121748
508,biltine,14.5333,20.9167,29.39,18,49,7.28,TD,1700121748
509,mudbidri,13.0833,74.9833,32.79,52,86,2.57,IN,1700121748
510,san rafael del sur,11.8485,-86.4384,23.85,90,100,1.81,NI,1700121748
511,stanthorpe,-28.6667,151.95,22.27,58,90,2.96,AU,1700121749
512,roma,43.2128,-75.4557,6.48,88,40,0.0,US,1700121749
513,puerto san jose,13.9256,-90.8244,24.6,86,100,2.47,GT,1700121750
514,port augusta,-32.5,137.7667,22.56,44,100,10.18,AU,1700121750
515,ad darb,17.7229,42.2526,31.51,55,100,2.36,SA,1700121750
516,puerto quijarro,-17.7833,-57.7667,25.64,54,31,1.42,BO,1700121751
517,el granada,37.5027,-122.4694,16.05,81,100,4.12,US,1700121751
518,dryden,49.7833,-92.7503,5.16,56,100,4.63,CA,1700121751
519,copala,16.65,-98.9833,25.49,84,8,1.78,MX,1700121752
520,intendente alvear,-35.2338,-63.592,10.82,41,0,3.77,AR,1700121752
521,ranau,5.9538,116.6641,26.33,81,57,1.47,MY,1700121752
522,howrah,22.5892,88.3103,26.0,73,75,3.09,IN,1700121752
523,shimoda,34.6667,138.95,16.2,72,97,4.57,JP,1700121753
524,cuatro cienegas de carranza,26.9833,-102.0833,15.2,94,6,0.65,MX,1700121753
525,sabha,27.0377,14.4283,19.78,50,0,3.14,LY,1700121754
526,beitbridge,-22.2167,30.0,26.11,40,0,4.64,ZW,1700121754
527,nguigmi,14.2495,13.1092,27.4,29,100,8.61,NE,1700121754
528,punata,-17.55,-65.8333,16.88,74,52,2.24,BO,1700121755
529,balkanabat,39.5108,54.3671,21.38,50,99,1.9,TM,1700121755
530,houma,29.5958,-90.7195,17.22,92,100,4.63,US,1700121583
531,ivdel',60.6911,60.4206,-1.56,91,77,2.68,RU,1700121756
532,bodo,67.28,14.405,-2.9,70,0,6.69,NO,1700121756
533,alvorada,-12.48,-49.1247,27.22,45,38,1.2,BR,1700121756
534,kukmor,56.1855,50.8944,0.31,77,100,3.15,RU,1700121757
535,guanica,17.9716,-66.908,25.59,57,100,3.93,PR,1700121757
536,soio,-6.1349,12.3689,27.39,79,97,0.6,AO,1700121757
537,dno,57.8277,29.9637,-2.5,85,90,2.42,RU,1700121758
538,kirakira,-10.4544,161.9205,25.77,85,28,3.88,SB,1700121758
539,rincon,32.296,-81.2354,15.98,94,100,4.12,US,1700121544
540,bodaybo,57.8506,114.1933,-19.11,99,90,1.16,RU,1700121758
541,boende,-0.2167,20.8667,24.84,87,95,1.24,CD,1700121759
542,kendari,-3.945,122.4989,28.42,77,84,1.54,ID,1700121759
543,karatas,36.582,35.3701,22.08,71,77,3.6,TR,1700121759
544,carolina beach,34.0352,-77.8936,15.6,92,100,0.45,US,1700121760
545,chernyshevskiy,63.0128,112.4714,-9.31,93,100,6.1,RU,1700121760
546,ghadamis,30.1337,9.5007,20.52,38,0,2.26,LY,1700121760
